City_ID,City,Country,Lat,Lng,Max Temp,Humidity,Cloudiness,Wind Speed,Current Description
0,Punta Arenas,CL,-53.15,-70.9167,39.31,60,0,17.27,clear sky
1,Longyearbyen,SJ,78.2186,15.6401,44.44,70,75,12.66,broken clouds
2,Puerto Carreno,CO,6.189,-67.4859,78.19,85,82,6.69,broken clouds
3,Yellowknife,CA,62.456,-114.3525,82.29,50,20,10.36,few clouds
4,East London,ZA,-33.0153,27.9116,66.04,30,93,6.55,overcast clouds
5,Tommot,RU,58.9564,126.2925,54.64,71,93,2.42,overcast clouds
6,Lavrentiya,RU,65.5833,-171.0,43.34,86,100,7.87,overcast clouds
7,Torbay,CA,47.6666,-52.7314,66.97,76,75,21.85,broken clouds
8,Saint-Philippe,RE,-21.3585,55.7679,67.55,84,32,10.31,light rain
9,Kingaroy,AU,-26.5333,151.8333,55.44,100,90,4.61,fog
10,Rikitea,PF,-23.1203,-134.9692,70.61,71,4,10.0,clear sky
11,Kieta,PG,-6.2167,155.6333,81.54,78,30,6.29,scattered clouds
12,Batagay-Alyta,RU,67.8006,130.4114,65.3,60,52,4.03,broken clouds
13,Korgen,NO,66.0771,13.8153,57.31,87,96,5.7,overcast clouds
14,Abha,SA,18.2164,42.5053,64.22,88,20,4.61,few clouds
15,Simbahan,PH,6.3032,120.5836,83.39,76,43,9.48,scattered clouds
16,Isla Vista,US,34.4133,-119.861,106.34,55,1,13.8,clear sky
17,Chuy,UY,-33.6971,-53.4616,49.39,89,0,4.79,clear sky
18,Vaini,TO,-21.2,-175.2,75.36,78,75,19.57,broken clouds
19,Mataura,NZ,-46.1927,168.8643,47.48,100,100,1.97,light rain
20,Wote,KE,-1.7808,37.6288,58.69,89,97,3.36,overcast clouds
21,Chokurdakh,RU,70.6333,147.9167,37.99,82,100,20.38,overcast clouds
22,Mackay,AU,-21.15,149.2,69.04,100,90,5.75,mist
23,Airai,TL,-8.9266,125.4092,57.54,90,63,3.31,broken clouds
24,Hamilton,US,39.1834,-84.5333,76.71,70,90,1.99,overcast clouds
25,Qaanaaq,GL,77.484,-69.3632,43.07,83,89,4.09,overcast clouds
26,Santiago Del Estero,AR,-27.7951,-64.2615,62.28,23,2,6.02,clear sky
27,Pisco,PE,-13.7,-76.2167,66.25,68,0,9.22,clear sky
28,Whitianga,NZ,-36.8333,175.7,55.02,65,55,4.88,broken clouds
29,Clyde River,CA,70.4692,-68.5914,43.03,87,75,6.91,broken clouds
30,Berlevag,NO,70.8578,29.0864,48.45,92,100,8.75,light rain
31,Nikolskoye,RU,59.7035,30.7861,64.29,84,41,6.33,scattered clouds
32,Hilo,US,19.7297,-155.09,81.81,73,75,6.91,light rain
33,Antioch,TR,36.2066,36.1572,82.22,62,1,5.21,clear sky
34,Gat,IL,31.61,34.7642,82.4,51,0,2.39,clear sky
35,Sabha,LY,27.0377,14.4283,88.52,15,0,10.45,clear sky
36,Ushuaia,AR,-54.8,-68.3,42.46,61,75,17.27,light rain
37,Soe,ID,-9.8607,124.284,61.93,93,18,3.18,few clouds
38,Avarua,CK,-21.2078,-159.775,75.25,78,75,10.36,broken clouds
39,Port Blair,IN,11.6667,92.75,81.79,81,100,17.6,overcast clouds
40,Beringovskiy,RU,63.05,179.3167,44.55,75,98,3.98,overcast clouds
41,Thompson,CA,55.7435,-97.8558,75.36,41,75,11.5,broken clouds
42,Jamestown,US,42.097,-79.2353,74.08,60,1,10.36,clear sky
43,Busselton,AU,-33.65,115.3333,47.05,90,90,30.27,light rain
44,Ginda,IN,30.6945,78.4932,65.08,90,44,3.69,scattered clouds
45,Henties Bay,NA,-22.116,14.2845,67.71,40,0,8.63,clear sky
46,Albany,US,42.6001,-73.9662,73.45,48,49,7.47,scattered clouds
47,New Norfolk,AU,-42.7826,147.0587,45.72,75,11,7.0,light rain
48,Lufilufi,WS,-13.8745,-171.5986,83.98,76,65,20.8,broken clouds
49,Tiksi,RU,71.6872,128.8694,40.44,88,95,8.93,overcast clouds
50,Tuktoyaktuk,CA,69.4541,-133.0374,53.6,100,90,6.91,mist
51,Berezanskaya,RU,45.7056,39.5932,75.45,64,8,7.67,clear sky
52,Sao Filipe,CV,14.8961,-24.4956,75.74,85,89,9.6,overcast clouds
53,Mountain Home,US,43.133,-115.6912,91.11,31,75,8.05,broken clouds
54,Cockburn Town,TC,21.4612,-71.1419,85.96,66,40,13.8,scattered clouds
55,Port Lincoln,AU,-34.7333,135.8667,48.85,79,4,8.7,clear sky
56,Mahebourg,MU,-20.4081,57.7,70.25,78,40,14.97,light rain
57,Hithadhoo,MV,-0.6,73.0833,81.0,72,67,3.0,light rain
58,La Orilla,MX,17.9833,-102.2333,85.42,69,88,6.58,overcast clouds
59,Kapaa,US,22.0752,-159.319,84.52,66,75,1.99,light rain
60,Chulman,RU,56.8479,124.9104,49.51,70,100,1.83,overcast clouds
61,Maniitsoq,GL,65.4167,-52.9,47.95,82,30,8.61,scattered clouds
62,Puerto Ayora,EC,-0.7393,-90.3518,78.76,88,39,5.01,scattered clouds
63,Paka,MY,4.6374,103.4368,75.13,94,100,0.0,overcast clouds
64,Xai-Xai,MZ,-25.0519,33.6442,60.8,88,0,5.73,clear sky
65,Betioky,MG,-23.7167,44.3833,64.63,58,0,9.28,clear sky
66,Sitka,US,57.0531,-135.33,60.69,88,75,4.61,broken clouds
67,Khatanga,RU,71.9667,102.5,64.11,75,85,10.78,overcast clouds
68,Severo-Yeniseyskiy,RU,60.3725,93.0408,48.87,69,45,4.16,scattered clouds
69,Norman Wells,CA,65.282,-126.8329,78.84,47,75,8.05,broken clouds
70,Merauke,ID,-8.4667,140.3333,75.49,89,88,12.06,overcast clouds
71,Suntar,RU,62.1444,117.6319,61.93,56,37,2.35,scattered clouds
72,Chapais,CA,49.7834,-74.8492,65.98,36,42,8.01,scattered clouds
73,Nyagan,RU,62.1406,65.3936,53.46,77,81,5.59,broken clouds
74,Ponta Delgada,PT,37.7333,-25.6667,74.12,73,75,6.91,broken clouds
75,Severo-Kurilsk,RU,50.6789,156.125,53.92,91,100,8.23,overcast clouds
76,Katsuura,JP,35.1333,140.3,82.11,81,94,1.52,overcast clouds
77,Thinadhoo,MV,0.5333,72.9333,81.64,71,98,0.78,overcast clouds
78,San Quintin,MX,30.4833,-115.95,76.89,64,34,14.18,scattered clouds
79,Vostok,RU,46.4856,135.8833,71.08,76,69,2.89,broken clouds
80,Road Town,VG,18.4167,-64.6167,86.04,74,40,9.22,scattered clouds
81,Leh,IN,34.1667,77.5833,62.76,57,66,4.34,broken clouds
82,Bambous Virieux,MU,-20.3428,57.7575,70.21,78,40,14.97,light rain
83,Butaritari,KI,3.0707,172.7902,81.68,75,36,8.41,scattered clouds
84,Alto Longa,BR,-5.2511,-42.2103,85.95,24,6,6.4,clear sky
85,Pevek,RU,69.7008,170.3133,36.46,79,93,6.33,overcast clouds
86,Luderitz,NA,-26.6481,15.1594,68.68,28,0,7.11,clear sky
87,Poum,NC,-20.2333,164.0167,69.17,57,23,17.25,few clouds
88,Leningradskiy,RU,69.3833,178.4167,34.16,90,100,15.57,overcast clouds
89,Hobart,AU,-42.8794,147.3294,46.06,72,20,7.0,few clouds
90,Arraial Do Cabo,BR,-22.9661,-42.0278,69.76,94,75,2.3,light intensity drizzle
91,Castro,BR,-24.7911,-50.0119,48.15,73,98,4.54,overcast clouds
92,Matara,LK,5.9485,80.5353,77.94,87,46,10.63,scattered clouds
93,Fukue,JP,32.6881,128.8419,81.34,81,58,4.56,broken clouds
94,Bluff,NZ,-46.6,168.3333,47.8,94,100,3.0,light rain
95,Fairbanks,US,64.8378,-147.7164,77.59,46,1,5.75,clear sky
96,Mar Del Plata,AR,-38.0023,-57.5575,51.1,1,51,8.99,broken clouds
97,Lebu,CL,-37.6167,-73.65,48.67,81,1,16.71,clear sky
98,Hermanus,ZA,-34.4187,19.2345,54.9,87,100,5.14,overcast clouds
99,Santa Catarina De Tepehuanes,MX,25.35,-105.7333,78.53,43,76,8.39,broken clouds
100,Bilma,NE,18.6853,12.9164,96.1,14,24,5.73,few clouds
101,Senanga,ZM,-16.1167,23.2667,54.57,51,0,7.74,clear sky
102,Sampit,ID,-2.5333,112.95,73.17,96,23,2.71,few clouds
103,Port Keats,AU,-14.25,129.55,73.13,91,87,2.21,overcast clouds
104,Williams Lake,CA,52.1415,-122.1445,92.77,28,75,5.75,smoke
105,Taltal,CL,-25.4,-70.4833,62.28,70,24,4.79,few clouds
106,Atuona,PF,-9.8,-139.0333,76.89,69,45,13.67,scattered clouds
107,Ondarroa,ES,43.3167,-2.4167,60.73,87,71,7.18,broken clouds
108,Faanui,PF,-16.4833,-151.75,78.04,63,76,16.06,broken clouds
109,Arlit,NE,18.7369,7.3853,88.0,40,88,17.85,overcast clouds
110,Portland,US,45.5234,-122.6762,89.89,44,90,3.44,overcast clouds
111,Raudeberg,NO,61.9875,5.1352,54.27,88,96,28.1,overcast clouds
112,Okha,RU,53.5739,142.9478,51.1,83,100,3.65,overcast clouds
113,Uinskoye,RU,56.8817,56.5813,62.35,98,81,6.98,light rain
114,Benoy,TD,8.9833,16.3199,69.91,95,100,4.09,overcast clouds
115,Mount Isa,AU,-20.7333,139.5,67.77,60,75,3.44,broken clouds
116,Kupang,ID,-10.1667,123.5833,75.06,85,9,8.88,clear sky
117,Acarau,BR,-2.8856,-40.12,78.84,78,92,15.73,overcast clouds
118,Lorengau,PG,-2.0226,147.2712,81.93,74,66,4.47,broken clouds
119,Oudtshoorn,ZA,-33.5907,22.2014,50.36,22,94,5.91,overcast clouds
120,Esperance,AU,-33.8667,121.9,51.64,77,44,27.2,light rain
121,Goundam,ML,16.4145,-3.6708,88.93,43,24,10.54,few clouds
122,San Cristobal,VE,7.7669,-72.225,84.38,74,50,6.73,scattered clouds
123,Cagayan De Oro,PH,8.4822,124.6472,75.9,86,81,4.76,broken clouds
124,Walvis Bay,NA,-22.9575,14.5053,72.55,16,0,14.97,clear sky
125,Cape Town,ZA,-33.9258,18.4232,57.27,92,75,1.01,broken clouds
126,Trairi,BR,-3.2778,-39.2689,78.78,78,36,11.92,scattered clouds
127,Barrow,US,71.2906,-156.7887,46.42,93,90,16.11,light rain
128,Oistins,BB,13.0667,-59.5333,84.29,74,40,16.11,scattered clouds
129,Riverton,US,40.5219,-111.9391,95.56,28,1,1.01,clear sky
130,Kaitangata,NZ,-46.2817,169.8464,48.88,96,100,2.75,light rain
131,Bulungu,CD,-4.55,18.6,75.83,32,14,0.69,few clouds
132,Muncar,ID,-8.4333,114.3333,73.87,88,49,2.48,scattered clouds
133,Moranbah,AU,-22.0016,148.0466,65.03,81,0,4.76,clear sky
134,Rimbey,CA,52.6334,-114.2353,83.62,36,6,8.48,clear sky
135,Taoudenni,ML,22.6783,-3.9836,103.93,11,0,4.0,clear sky
136,Killybegs,IE,54.6333,-8.45,55.45,72,100,11.59,overcast clouds
137,Tuy Hoa,VN,13.0833,109.3,82.27,68,92,12.37,overcast clouds
138,Hvide Sande,DK,56.0045,8.1294,61.09,71,100,21.68,overcast clouds
139,Wajir,KE,1.7471,40.0573,75.43,63,83,22.01,broken clouds
140,Purpe,RU,64.4803,76.6897,49.71,83,36,8.1,scattered clouds
141,Kodiak,US,57.79,-152.4072,54.91,82,90,5.75,overcast clouds
142,Mabay,PH,6.0577,124.4666,78.58,80,99,3.62,light rain
143,Kirakira,SB,-10.4544,161.9205,79.0,72,93,6.89,overcast clouds
144,San Patricio,US,28.017,-97.5169,97.52,53,58,17.22,broken clouds
145,Gillette,US,44.2911,-105.5022,85.12,26,1,11.01,haze
146,Guerrero Negro,MX,27.9769,-114.0611,84.52,50,8,12.97,clear sky
147,Sarab,IR,38.6066,44.9883,71.06,66,99,2.04,overcast clouds
148,Graaff-Reinet,ZA,-32.2522,24.5308,61.92,20,41,10.45,scattered clouds
149,Richards Bay,ZA,-28.783,32.0377,61.7,83,0,9.66,clear sky
150,Newport,GB,51.5877,-2.9984,61.83,87,19,7.29,few clouds
151,Pacific Grove,US,36.6177,-121.9166,90.28,76,1,7.0,clear sky
152,Bosaso,SO,11.2842,49.1816,89.11,37,56,19.84,broken clouds
153,Bathsheba,BB,13.2167,-59.5167,84.81,74,40,16.11,scattered clouds
154,Arsk,RU,56.0915,49.8778,66.13,79,12,8.59,few clouds
155,Dikson,RU,73.5069,80.5464,43.48,99,100,11.34,light rain
156,Hasaki,JP,35.7333,140.8333,77.29,86,30,5.37,scattered clouds
157,Sungaipenuh,ID,-2.0833,101.3833,62.96,98,96,1.07,overcast clouds
158,Itarema,BR,-2.9248,-39.9167,78.67,79,83,15.12,broken clouds
159,Turkistan,KZ,43.0,68.0,80.51,24,86,23.42,overcast clouds
160,Klaksvik,FO,62.2266,-6.589,49.12,76,89,12.37,overcast clouds
161,Gannan,CN,47.9147,123.5031,59.2,91,100,13.02,overcast clouds
162,Lawrenceburg,US,38.0373,-84.8966,81.07,69,40,4.61,scattered clouds
163,Port Moresby,PG,-9.4431,147.1797,75.51,85,98,6.8,overcast clouds
164,Tuatapere,NZ,-46.1333,167.6833,47.82,95,100,3.65,overcast clouds
165,Hobyo,SO,5.3505,48.5268,76.01,81,79,24.52,broken clouds
166,Yashkul,RU,46.1711,45.3435,79.66,28,36,4.99,scattered clouds
167,Cidreira,BR,-30.1811,-50.2056,56.73,86,2,14.23,clear sky
168,Vila Velha,BR,-20.3297,-40.2925,62.55,94,90,6.91,mist
169,Puerto Escondido,MX,15.85,-97.0667,88.63,62,40,9.22,scattered clouds
170,Lakselv,NO,70.0513,24.9718,48.02,93,75,8.05,broken clouds
171,Talnakh,RU,69.4865,88.3972,51.15,87,13,8.72,few clouds
172,Provideniya,RU,64.3833,-173.3,45.48,83,97,4.47,overcast clouds
173,Thunder Bay,CA,48.4001,-89.3168,78.57,42,75,13.8,haze
174,Westport,US,41.1415,-73.3579,78.62,49,40,1.99,scattered clouds
175,Pimentel,PE,-6.8367,-79.9342,71.89,77,0,5.01,clear sky
176,Tukan,RU,53.8409,57.4552,59.65,92,58,3.76,broken clouds
177,Berdigestyakh,RU,62.0989,126.6992,65.61,49,0,0.76,clear sky
178,Nouakchott,MR,18.0858,-15.9785,76.93,82,45,12.39,scattered clouds
179,Vardo,NO,70.3705,31.1107,48.29,91,99,11.92,overcast clouds
180,Upernavik,GL,72.7868,-56.1549,42.98,79,100,3.27,overcast clouds
181,Aklavik,CA,68.2191,-135.0107,77.83,37,93,15.61,overcast clouds
182,Geraldton,AU,-28.7667,114.6,62.13,77,75,20.71,broken clouds
183,Nanortalik,GL,60.1432,-45.2371,48.42,80,86,11.05,overcast clouds
184,Chaman,PK,30.9236,66.4512,78.85,18,1,6.31,clear sky
185,Zarate,AR,-34.0981,-59.0286,57.02,62,10,2.73,clear sky
186,Biltine,TD,14.5333,20.9167,84.6,59,74,10.85,broken clouds
187,Abonnema,NG,4.7084,6.7931,76.57,86,100,7.05,overcast clouds
188,Nalut,LY,30.3333,10.85,89.8,12,0,9.22,clear sky
189,Santa Isabel,BR,-23.3156,-46.2214,57.4,95,94,3.53,overcast clouds
190,Mikuni,JP,36.2171,136.1519,76.91,80,17,2.68,few clouds
191,Turukhansk,RU,65.8167,87.9833,55.71,63,100,6.38,overcast clouds
192,Carnarvon,AU,-24.8667,113.6333,53.67,58,90,3.44,overcast clouds
193,Troitskoye,RU,52.9821,84.6757,58.77,62,74,5.28,broken clouds
194,Voronovytsya,UA,49.1095,28.6808,70.2,81,32,6.89,scattered clouds
195,Zagan,PL,51.6176,15.3149,64.69,63,15,5.53,few clouds
196,Marau,BR,-28.4492,-52.2,49.78,67,67,3.4,broken clouds
197,Ciudad Bolivar,VE,8.1222,-63.5497,85.59,65,54,5.7,broken clouds
198,Kato Mazarakion,GR,38.0667,21.65,82.24,43,0,2.46,clear sky
199,Ilulissat,GL,69.2167,-51.1,42.35,79,16,5.88,few clouds
200,Tatawin,TN,32.9297,10.4518,97.68,16,1,6.8,clear sky
201,Magangue,CO,9.242,-74.7547,94.32,50,11,1.79,few clouds
202,Aitape,PG,-3.1374,142.3475,78.75,83,54,2.71,broken clouds
203,Oneonta,US,42.4529,-75.0638,73.09,60,15,5.3,few clouds
204,Port Antonio,JM,18.18,-76.4612,86.95,76,16,4.16,few clouds
205,Ashcroft,CA,50.7165,-121.2859,89.94,21,100,8.5,overcast clouds
206,Souillac,MU,-20.5167,57.5167,70.36,78,40,14.97,scattered clouds
207,Byron Bay,AU,-28.65,153.6167,63.05,75,5,11.92,clear sky
208,Weligama,LK,5.9667,80.4167,78.17,87,46,10.89,scattered clouds
209,Ballina,AU,-28.8667,153.5667,57.38,100,0,0.0,clear sky
210,Beloha,MG,-25.1667,45.05,63.97,75,0,12.75,clear sky
211,Bubaque,GW,11.2833,-15.8333,77.56,90,100,19.6,moderate rain
212,Puri,IN,19.8,85.85,81.12,78,100,9.82,overcast clouds
213,Victoria,HK,22.2855,114.1577,86.97,89,99,1.99,light rain
214,Bredasdorp,ZA,-34.5322,20.0403,52.29,93,100,3.44,overcast clouds
215,Nadym,RU,65.5333,72.5167,48.24,82,44,9.08,scattered clouds
216,Whitehorse,CA,60.7161,-135.0538,81.1,31,20,11.01,few clouds
217,Vestmanna,FO,62.1564,-7.1664,47.32,76,90,8.05,overcast clouds
218,Havelock,US,34.8791,-76.9013,94.05,82,75,5.75,light rain
219,Tevaitoa,PF,-16.7833,-151.5,77.85,60,99,15.14,overcast clouds
220,Xining,CN,36.6167,101.7667,54.95,72,5,3.24,clear sky
221,Alice Springs,AU,-23.7,133.8833,53.15,82,0,3.44,clear sky
222,Mezen,RU,65.8522,44.24,46.98,99,65,4.41,broken clouds
223,Cabo San Lucas,MX,22.8909,-109.9124,97.52,58,75,5.01,broken clouds
224,Horta,PT,38.5333,-28.6333,71.11,83,52,7.43,broken clouds
225,Deputatskiy,RU,69.3,139.9,42.62,83,100,6.22,overcast clouds
226,Tubuala,PA,9.5167,-79.0333,89.33,83,86,8.21,overcast clouds
227,Ust-Omchug,RU,61.15,149.6333,59.18,45,39,2.64,scattered clouds
228,Adrar,MR,20.5022,-10.0711,89.89,39,70,16.84,broken clouds
229,Sistranda,NO,63.7256,8.834,51.91,75,100,16.28,overcast clouds
230,Iqaluit,CA,63.7506,-68.5145,55.13,58,75,3.0,broken clouds
231,Jeremie,HT,18.65,-74.1167,85.35,70,23,2.66,few clouds
232,Tukrah,LY,32.5341,20.5791,81.36,63,0,1.79,clear sky
233,Saint-Joseph,RE,-21.3667,55.6167,66.56,80,14,11.23,few clouds
234,Dingle,PH,10.9995,122.6711,78.31,88,99,6.44,overcast clouds
235,Erenhot,CN,43.6475,111.9767,61.92,65,0,9.28,clear sky
236,Rio Grande,BR,-32.035,-52.0986,53.71,87,0,7.87,clear sky
237,Koumac,NC,-20.5667,164.2833,69.15,54,12,13.71,few clouds
238,Palmer,US,42.1584,-72.3287,75.47,46,40,1.01,scattered clouds
239,Madimba,TZ,-10.4,40.3333,72.52,85,8,10.45,clear sky
240,Saskylakh,RU,71.9167,114.0833,69.78,44,0,7.58,clear sky
241,Ribeira Grande,PT,38.5167,-28.7,71.91,83,49,7.58,scattered clouds
242,Labuhan,ID,-6.8844,112.2051,75.13,86,79,6.55,broken clouds
243,Ahipara,NZ,-35.1667,173.1667,57.02,70,10,5.37,clear sky
244,Plettenberg Bay,ZA,-34.0527,23.3716,60.62,38,18,3.29,few clouds
245,Chernitsyno,RU,51.5074,36.051,65.68,57,8,4.29,clear sky
246,Innoshima,JP,34.2833,133.1833,79.09,72,40,2.17,scattered clouds
247,Port Alfred,ZA,-33.5906,26.891,66.24,36,100,7.27,overcast clouds
248,Andrelandia,BR,-21.7397,-44.3092,49.57,66,17,5.32,few clouds
249,Kantang,TH,7.4054,99.5156,78.15,90,100,9.17,overcast clouds
250,Kalmar,SE,56.6616,16.3616,60.96,93,20,3.44,few clouds
251,Akyab,MM,20.15,92.9,81.3,87,100,13.56,overcast clouds
252,Balabac,PH,7.9868,117.0645,82.9,77,53,11.83,broken clouds
253,La Ronge,CA,55.1001,-105.2842,79.02,36,20,6.91,smoke
254,Salinopolis,BR,-0.6136,-47.3561,77.74,86,30,11.95,moderate rain
255,Mons,BE,50.4538,3.9516,60.84,78,15,4.61,few clouds
256,Avallon,FR,47.4833,3.9,58.3,89,100,4.94,overcast clouds
257,Kloulklubed,PW,7.0419,134.2556,81.1,73,94,8.43,overcast clouds
258,Georgetown,MY,5.4112,100.3354,78.73,93,40,5.99,scattered clouds
259,Kahului,US,20.8947,-156.47,86.97,65,20,29.93,few clouds
260,Shitanjing,CN,39.2342,106.3439,66.52,51,0,5.59,clear sky
261,Padang,ID,-0.9492,100.3543,76.12,88,100,3.33,overcast clouds
262,Husavik,IS,66.0449,-17.3389,53.51,71,81,3.87,broken clouds
263,Junction City,US,39.0286,-96.8314,82.4,72,20,11.5,light intensity drizzle
264,San Ignacio,BZ,17.1561,-89.0714,75.34,94,75,0.0,broken clouds
265,Tasiilaq,GL,65.6145,-37.6368,50.16,78,69,3.0,broken clouds
266,Meulaboh,ID,4.1363,96.1285,75.2,85,100,2.91,overcast clouds
267,Port Hardy,CA,50.6996,-127.4199,62.78,82,40,12.66,scattered clouds
268,Bako,ET,5.7833,36.5667,65.17,62,100,4.59,overcast clouds
269,Puerto Ayacucho,VE,5.6639,-67.6236,75.22,91,96,4.74,overcast clouds
270,Tianpeng,CN,30.9866,103.9393,72.07,62,0,3.6,clear sky
271,Nioro,GM,13.35,-15.75,78.24,85,100,6.76,overcast clouds
272,Buala,SB,-8.145,159.5921,79.18,85,100,11.18,moderate rain
273,Cap Malheureux,MU,-19.9842,57.6142,70.47,76,0,5.99,clear sky
274,Pangkalanbuun,ID,-2.6833,111.6167,72.77,97,18,1.77,few clouds
275,Mahonda,TZ,-6.45,39.4667,77.11,80,39,15.03,scattered clouds
276,Ketchikan,US,55.3422,-131.6461,73.87,56,1,11.5,clear sky
277,Mantua,IT,45.1667,10.7833,79.12,78,21,1.99,few clouds
278,Save,BJ,8.0425,2.486,74.7,82,100,5.44,overcast clouds
279,Kabinda,CD,-6.1333,24.4833,67.95,34,19,5.73,few clouds
280,Pauini,BR,-7.7136,-66.9764,81.41,38,40,2.35,scattered clouds
281,Macusani,PE,-14.0833,-70.4333,40.77,70,42,7.07,scattered clouds
282,Mahanoro,MG,-19.9,48.8,63.21,86,39,6.33,light rain
283,Adeje,ES,28.1227,-16.726,75.22,64,0,5.01,clear sky
284,Ascension,US,30.2169,-90.9001,94.26,55,92,5.82,heavy intensity rain
285,Brawley,US,32.9787,-115.5303,106.48,30,1,3.44,clear sky
286,Madang,PG,-5.2246,145.7966,76.73,84,70,3.13,broken clouds
287,Ballitoville,ZA,-29.539,31.2144,61.25,93,0,1.14,clear sky
288,Fort Saint James,CA,54.4333,-124.25,91.18,21,0,5.46,clear sky
289,Nichinan,JP,31.6,131.3667,79.75,85,88,2.68,overcast clouds
290,Pangnirtung,CA,66.1451,-65.7125,54.34,60,100,3.96,overcast clouds
291,Manokwari,ID,-0.8667,134.0833,78.62,80,73,3.6,broken clouds
292,Knysna,ZA,-34.0363,23.0471,53.98,37,26,2.86,scattered clouds
293,Plattling,DE,48.7833,12.8667,68.22,76,79,3.78,broken clouds
294,Atar,MR,20.5169,-13.0499,94.98,27,5,10.58,clear sky
295,Lar,IN,26.2039,83.9717,80.29,83,100,20.11,overcast clouds
296,Egvekinot,RU,66.3167,-179.1667,38.07,62,94,4.47,overcast clouds
297,Mataram,ID,-8.5833,116.1167,72.41,79,56,8.5,broken clouds
298,College,US,64.8569,-147.8028,77.58,46,40,4.61,scattered clouds
299,Myitkyina,MM,25.3833,97.4,74.12,99,99,1.01,overcast clouds
300,Casma,CL,-41.0082,-73.1244,49.28,89,20,1.88,few clouds
301,Akureyri,IS,65.6835,-18.0878,53.53,82,0,9.22,clear sky
302,Klamath Falls,US,42.2249,-121.7817,86.86,36,20,3.0,few clouds
303,Tarquinia,IT,42.2482,11.7553,79.61,90,36,10.13,scattered clouds
304,Codrington,AU,-38.2667,141.9667,41.7,89,30,8.08,scattered clouds
305,Gushikawa,JP,26.3544,127.8686,81.99,92,75,6.91,mist
306,Yermolayevo,RU,52.7167,55.8,67.23,73,25,3.6,scattered clouds
307,Lai,TD,9.3952,16.2989,71.31,94,100,3.94,overcast clouds
308,Nome,US,64.5011,-165.4064,48.27,93,90,19.57,overcast clouds
309,Quito,EC,-0.2299,-78.5249,72.55,52,55,5.55,light rain
310,Senno,RU,59.5336,33.9167,49.26,78,6,5.06,clear sky
311,Hami,CN,42.8,93.45,77.81,38,100,14.56,overcast clouds
312,Buraydah,SA,26.326,43.975,91.85,11,2,7.18,clear sky
313,Bethel,US,41.3712,-73.414,77.13,55,20,8.05,few clouds
314,Okhotsk,RU,59.3833,143.3,63.07,59,11,9.93,few clouds
315,Caravelas,BR,-17.7125,-39.2481,67.8,77,49,11.9,scattered clouds
316,Constitucion,CL,-35.3333,-72.4167,53.73,77,56,11.32,broken clouds
317,Vallenar,CL,-28.5708,-70.7581,68.02,35,0,3.53,clear sky
318,Tahe,CN,52.3333,124.7333,50.61,99,100,7.99,heavy intensity rain
319,Sibolga,ID,1.7427,98.7792,74.34,97,100,3.6,overcast clouds
320,High Level,CA,58.5169,-117.136,86.11,39,1,4.61,clear sky
321,Rocha,UY,-34.4833,-54.3333,46.9,78,12,4.12,few clouds
322,Port Augusta,AU,-32.5,137.7667,46.71,91,35,3.06,scattered clouds
323,Mayo,US,38.8876,-76.5119,83.86,60,1,3.0,clear sky
324,San Rafael,AR,-34.6177,-68.3301,54.3,44,9,5.88,clear sky
325,Agadir,MA,30.4202,-9.5982,72.05,60,1,4.03,clear sky
326,Zhaotong,CN,27.3167,103.7167,54.95,84,2,1.72,clear sky
327,Erdenet,MN,49.0333,104.0833,52.47,89,60,2.33,broken clouds
328,Bengkulu,ID,-3.8004,102.2655,74.28,92,34,3.91,scattered clouds
329,Nouadhibou,MR,20.931,-17.0347,69.78,88,6,20.71,sand
330,Northam,GB,51.0333,-4.2167,60.39,94,14,4.88,few clouds
331,Nemuro,JP,43.3236,145.575,65.1,99,100,15.86,overcast clouds
332,Mount Gambier,AU,-37.8333,140.7667,39.11,100,10,8.05,clear sky
333,Christchurch,NZ,-43.5333,172.6333,53.01,87,90,5.01,overcast clouds
334,Flinders,AU,-34.5833,150.8552,63.68,68,2,8.5,clear sky
335,Port Hawkesbury,CA,45.6169,-61.3485,69.04,67,20,8.99,few clouds
336,Broome,US,42.2506,-75.833,75.09,57,75,1.99,broken clouds
337,Ugoofaaru,MV,5.6667,73.0,82.09,75,50,11.79,scattered clouds
338,Lososina,RU,48.9975,140.3106,58.41,90,100,9.15,overcast clouds
339,Doha,QA,25.2867,51.5333,94.89,75,0,3.44,clear sky
340,Kamarion,GR,36.8,25.8167,87.22,72,0,13.15,clear sky
341,Samarai,PG,-10.6167,150.6667,78.28,65,89,14.65,overcast clouds
342,Bilibino,RU,68.0546,166.4372,46.47,58,96,3.06,overcast clouds
343,Hambantota,LK,6.1241,81.1185,79.14,94,0,12.66,clear sky
344,Chicama,PE,-7.8447,-79.1469,66.74,68,4,9.22,clear sky
345,Anadyr,RU,64.75,177.4833,46.9,61,40,5.99,scattered clouds
346,Port Elizabeth,ZA,-33.918,25.5701,52.09,71,40,4.61,scattered clouds
347,Muros,ES,42.7762,-9.0603,63.1,71,90,1.21,overcast clouds
348,Kawalu,ID,-7.3817,108.2082,71.08,97,89,1.14,overcast clouds
349,Vanavara,RU,60.34,102.2797,59.76,87,100,3.15,overcast clouds
350,Tondano,ID,1.3038,124.9112,64.49,93,34,1.41,scattered clouds
351,Caraballeda,VE,10.6112,-66.8522,86.07,83,29,11.5,scattered clouds
352,Yulara,AU,-25.2406,130.9889,48.04,81,35,0.0,scattered clouds
353,Mount Vernon,US,40.9126,-73.8371,79.97,43,40,5.99,scattered clouds
354,Isangel,VU,-19.55,169.2667,71.71,64,75,17.27,broken clouds
355,George,ZA,-33.963,22.4617,51.35,82,0,2.3,clear sky
356,Cherskiy,RU,68.75,161.3,41.22,92,100,15.5,light rain
357,Abu Kamal,SY,34.4506,40.9171,93.96,16,0,7.54,clear sky
358,Ardakan,IR,32.31,54.0175,93.58,19,41,1.16,scattered clouds
359,Kununurra,AU,-15.7667,128.7333,66.18,88,5,1.14,clear sky
360,Ibiruba,BR,-28.6275,-53.0897,50.36,70,50,2.51,scattered clouds
361,Port-Gentil,GA,-0.7193,8.7815,76.96,83,90,8.05,overcast clouds
362,Martapura,ID,-3.4167,114.85,73.49,100,40,1.14,scattered clouds
363,Channel-Port Aux Basques,CA,47.5702,-59.1367,59.54,91,26,20.51,scattered clouds
364,Vaitape,PF,-16.5167,-151.75,78.04,63,76,15.86,broken clouds
365,Skibbereen,IE,51.55,-9.2667,60.6,87,55,5.68,broken clouds
366,Sugod,PH,12.987,124.0805,82.78,80,100,14.36,overcast clouds
367,Batemans Bay,AU,-35.7167,150.1833,59.09,69,1,4.63,clear sky
368,Kizema,RU,61.113,44.8302,55.06,97,90,6.62,overcast clouds
369,Conakry,GN,9.538,-13.6773,77.07,94,75,0.0,moderate rain
370,Laguna,US,38.421,-121.4238,103.21,31,1,5.99,clear sky
371,Alofi,NU,-19.0595,-169.9187,73.29,100,96,8.05,moderate rain
372,Asau,RO,46.4333,26.4,77.92,63,25,5.82,scattered clouds
373,Troy,US,42.6056,-83.1499,81.63,54,1,1.99,clear sky
374,Songling,CN,31.1933,120.7176,82.38,94,99,4.07,light rain
375,Ponta Do Sol,PT,32.6667,-17.1,70.43,70,19,9.78,few clouds
376,Fare,PF,-16.7,-151.0167,77.49,63,100,15.64,overcast clouds
377,Bahia Blanca,AR,-38.7196,-62.2724,47.44,57,3,7.63,clear sky
378,Millinocket,US,45.6573,-68.7098,72.36,43,20,8.05,few clouds
379,Broken Hill,AU,-31.95,141.4333,49.71,93,90,5.75,overcast clouds
380,Ponorogo,ID,-7.8685,111.462,72.93,91,80,4.54,broken clouds
381,Cayenne,GF,4.9333,-52.3333,84.24,78,0,1.01,clear sky
382,Tecoanapa,MX,16.5167,-98.75,86.56,67,21,9.84,few clouds
383,Saint-Georges,GD,12.0564,-61.7485,85.68,79,20,23.02,few clouds
384,Mesquite,US,32.7668,-96.5992,102.88,42,40,5.99,scattered clouds
385,Yeniseysk,RU,58.4497,92.1703,51.37,72,62,2.95,broken clouds
386,Upata,VE,8.0086,-62.3989,75.65,85,52,1.79,broken clouds
387,Dalianwan,CN,39.0286,121.695,71.64,88,75,11.18,thunderstorm with light rain
388,Petropavlovsk-Kamchatskiy,RU,53.0452,158.6483,50.59,100,75,4.47,light rain
389,Vidim,RU,56.4088,103.1106,60.01,68,100,2.86,overcast clouds
390,Salalah,OM,17.0151,54.0924,77.09,94,90,6.91,drizzle
391,Marzuq,YE,14.4,46.4667,77.02,67,28,5.97,scattered clouds
392,Carnot,CF,4.9409,15.8665,70.65,96,99,3.22,overcast clouds
393,Nizhniy Baskunchak,RU,48.2198,46.8311,80.64,25,3,1.12,clear sky
394,Nosy Varika,MG,-20.5833,48.5333,63.14,85,32,4.97,light rain
395,Loviisa,FI,60.4566,26.2251,62.46,94,21,8.57,few clouds
396,Quatre Cocos,MU,-20.2078,57.7625,70.09,71,3,14.94,clear sky
397,Makakilo City,US,21.3469,-158.0858,86.32,54,40,18.41,scattered clouds
398,Yar-Sale,RU,66.8333,70.8333,44.89,89,16,8.12,few clouds
399,Humaita,BR,-7.5061,-63.0208,82.54,40,9,1.28,clear sky
400,Port Said,EG,31.2565,32.2841,82.38,78,0,3.44,clear sky
401,Yuzhou,CN,34.1628,113.4639,82.67,87,6,5.61,clear sky
402,San Rafael Del Sur,NI,11.8485,-86.4384,88.77,55,73,15.55,broken clouds
403,Port-Cartier,CA,50.0334,-66.8654,68.22,60,93,8.72,overcast clouds
404,Lazaro Cardenas,MX,17.9583,-102.2,85.69,68,87,6.69,overcast clouds
405,Karakulino,RU,56.012,53.7067,63.75,91,8,5.77,clear sky
406,Harwich,GB,51.9419,1.2844,63.0,87,86,3.0,overcast clouds
407,Goderich,CA,43.7501,-81.7165,75.9,68,93,10.36,overcast clouds
408,Kholodnyy,RU,62.7167,147.95,59.16,48,66,3.36,broken clouds
409,Touros,BR,-5.1989,-35.4608,79.7,77,87,17.27,overcast clouds
410,Honiara,SB,-9.4333,159.95,79.77,79,85,3.4,overcast clouds
411,Rundu,NA,-17.9333,19.7667,54.34,36,2,7.18,clear sky
412,Pokosnoye,RU,55.5258,101.0536,57.49,67,100,4.92,overcast clouds
413,Imbituba,BR,-28.24,-48.6703,60.69,88,35,9.57,scattered clouds
414,Pithiviers,FR,48.1667,2.25,64.06,79,47,5.93,scattered clouds
415,Ust-Kan,RU,50.9276,84.761,47.19,87,3,2.13,clear sky
416,Pathein,MM,16.7833,94.7333,78.85,89,100,10.11,overcast clouds
417,Paamiut,GL,61.994,-49.6678,44.96,87,97,5.88,overcast clouds
418,El Alto,PE,-4.2714,-81.2147,71.26,74,15,20.89,few clouds
419,Yushala,RU,57.0761,64.2601,64.15,97,98,7.99,overcast clouds
420,Stornoway,GB,58.2093,-6.3865,54.93,82,90,5.75,overcast clouds
421,Shimoda,JP,34.6667,138.95,79.11,78,17,3.29,few clouds
422,Balud,PH,10.1476,123.6953,80.56,82,56,6.46,broken clouds
423,Denpasar,ID,-8.65,115.2167,78.46,89,20,11.5,few clouds
424,Yeppoon,AU,-23.1333,150.7333,60.58,80,0,5.03,clear sky
425,Tazmalt,DZ,36.3868,4.3989,81.97,50,99,3.11,overcast clouds
426,Kalianget,ID,-7.05,113.9333,78.37,79,34,6.67,scattered clouds
427,Boyolangu,ID,-8.1181,111.8935,73.58,90,80,5.32,broken clouds
428,Agadez,NE,19.75,10.25,89.73,13,16,2.55,few clouds
429,Peniche,PT,39.3558,-9.3811,64.72,82,8,15.52,clear sky
430,Darnah,LY,32.767,22.6367,84.2,45,0,14.14,clear sky
431,Mitsamiouli,KM,-11.3847,43.2844,76.73,70,0,6.33,clear sky
432,Nalgonda,IN,17.05,79.2667,79.14,69,100,14.94,overcast clouds
433,Rajnagar,IN,24.8833,79.9167,77.38,91,100,13.98,light rain
434,Maceio,BR,-9.6658,-35.7353,76.44,83,40,12.66,scattered clouds
435,Kuandian,CN,40.7286,124.7847,71.13,98,99,3.24,overcast clouds
436,Dongsheng,CN,39.8161,109.9776,60.76,61,2,11.99,clear sky
437,Port Macquarie,AU,-31.4333,152.9167,46.36,64,0,9.6,clear sky
438,San,ML,13.3034,-4.8956,77.94,80,89,10.04,overcast clouds
439,Lagoa,PT,39.05,-27.9833,70.86,86,100,9.19,overcast clouds
440,Sosnovo-Ozerskoye,RU,52.5249,111.5418,51.26,93,40,2.95,scattered clouds
441,Vertientes,CU,21.2594,-78.1464,92.01,76,53,9.57,broken clouds
442,Te Anau,NZ,-45.4167,167.7167,47.17,97,100,1.48,overcast clouds
443,Tera,NE,14.0078,0.7531,85.24,60,56,15.26,broken clouds
444,Los Llanos De Aridane,ES,28.6585,-17.9182,69.55,73,0,19.57,clear sky
445,Kresttsy,RU,58.2452,32.5165,58.15,98,22,5.53,few clouds
446,Burnie,AU,-41.0667,145.9167,44.98,85,15,11.25,few clouds
447,Molochnoye,RU,59.2917,39.6787,57.61,80,9,8.72,clear sky
448,Barinas,VE,8.6226,-70.2075,87.49,88,89,6.91,overcast clouds
449,Olafsvik,IS,64.8945,-23.7142,54.48,93,89,7.0,overcast clouds
450,Saint George,US,37.1041,-113.5841,100.87,31,1,4.0,clear sky
451,Sioux Lookout,CA,50.1001,-91.917,70.18,46,90,18.41,smoke
452,Moron,AR,-34.6534,-58.6198,59.0,64,33,2.53,scattered clouds
453,Alexandria,EG,31.2156,29.9553,78.76,83,0,8.05,clear sky
454,Gotsu,JP,35.0,132.2167,79.47,73,47,3.62,scattered clouds
455,Yumen,CN,40.2833,97.2,74.55,24,93,18.61,overcast clouds
456,Saint-Tite,CA,46.7334,-72.5658,72.45,49,81,10.33,broken clouds
457,Safaga,EG,26.7292,33.9365,89.55,46,30,0.43,scattered clouds
458,Chernyshevskiy,RU,63.0128,112.4714,58.8,59,29,2.37,scattered clouds
459,Tiznit,MA,29.5833,-9.5,81.61,39,13,2.91,few clouds
460,Svetlaya,RU,46.5389,138.3297,64.4,94,100,11.56,overcast clouds
461,Emba,KZ,48.8264,58.1442,77.9,13,4,3.51,clear sky
462,Sangar,RU,63.9242,127.4739,64.17,54,6,1.95,clear sky
463,Faranah,GN,10.0404,-10.7434,70.09,95,72,8.14,broken clouds
464,Saldanha,ZA,-33.0117,17.9442,58.57,55,41,3.96,scattered clouds
465,Proletarsk,RU,46.7031,41.7192,76.77,31,2,5.82,clear sky
466,Salinas,US,36.6777,-121.6555,90.7,64,1,12.66,clear sky
467,Igrim,RU,63.1906,64.4162,51.96,70,70,5.86,broken clouds
468,Girvan,GB,55.2426,-4.8555,58.51,87,82,3.8,broken clouds
469,Yangjiang,CN,21.85,111.9667,81.57,86,100,4.25,overcast clouds
470,Havre-Saint-Pierre,CA,50.2334,-63.5986,61.16,88,75,14.97,broken clouds
471,Banda Aceh,ID,5.5577,95.3222,80.22,72,100,14.03,light rain
472,Sinnamary,GF,5.3833,-52.95,80.06,82,91,8.23,overcast clouds
473,Kapoeta,SS,4.7717,33.5903,72.93,76,100,6.35,light rain
474,Joshimath,IN,30.5667,79.5667,70.11,88,76,0.87,broken clouds
475,Uyuni,BO,-20.4597,-66.825,45.0,23,82,18.61,broken clouds
476,Svetlogorsk,BY,52.6333,29.7333,66.45,83,100,5.66,overcast clouds
477,Vargem Grande,BR,-3.5431,-43.9158,77.9,47,99,1.03,overcast clouds
478,Takoradi,GH,4.8845,-1.7554,76.03,87,40,6.76,scattered clouds
479,Bulancak,TR,40.9372,38.2291,71.42,88,0,0.0,clear sky
480,Rawson,AR,-43.3002,-65.1023,46.51,39,0,10.87,clear sky
481,Tokmak,UA,47.2514,35.7058,73.92,57,0,4.41,clear sky
482,Katherine,AU,-14.4667,132.2667,66.52,72,36,0.0,scattered clouds
483,Corinto,GR,37.9407,22.9573,90.63,47,0,1.66,clear sky
484,Ostrovnoy,RU,68.0531,39.5131,46.24,96,97,4.68,overcast clouds
485,Evensk,RU,61.95,159.2333,54.14,55,60,3.71,broken clouds
486,Gambela,ET,8.25,34.5833,69.39,95,100,3.67,overcast clouds
487,Cannock,GB,52.6904,-2.0309,60.91,85,68,1.99,broken clouds
488,Plaridel,PH,14.8872,120.8572,82.9,90,100,6.29,overcast clouds
489,Margate,GB,51.3813,1.3862,63.03,88,45,1.99,scattered clouds
490,Orlik,RU,52.5178,99.825,54.41,97,100,2.53,light rain
491,Sangerhausen,DE,51.4667,11.3,62.46,87,9,6.13,clear sky
492,Abakaliki,NG,6.3163,8.1169,74.61,90,98,6.35,overcast clouds
493,Srednekolymsk,RU,67.45,153.6833,38.1,97,100,13.85,light rain
494,Tarakan,ID,3.3,117.6333,78.3,94,40,4.61,scattered clouds
495,Kavieng,PG,-2.5744,150.7967,81.97,73,27,4.81,scattered clouds
496,Praia Da Vitoria,PT,38.7333,-27.0667,75.45,78,75,11.12,broken clouds
497,Guanare,VE,9.0418,-69.7421,87.82,66,77,8.05,broken clouds
498,Hede,CN,33.7681,120.2517,76.78,94,0,2.62,light rain
499,Lethem,GY,3.3803,-59.7968,79.34,82,74,2.06,moderate rain
500,Domoni,KM,-12.2569,44.5319,74.66,78,1,10.29,light rain
501,Istok,XK,42.7808,20.4875,74.32,48,22,5.32,few clouds
502,Eureka,US,40.8021,-124.1637,71.13,73,71,5.01,broken clouds
503,Sur,OM,22.5667,59.5289,88.02,62,37,8.99,scattered clouds
504,Ancud,CL,-41.8697,-73.8203,47.73,78,27,2.66,scattered clouds
505,Ankara,TR,39.9199,32.8543,78.19,41,0,4.61,clear sky
506,Jaroslaw,PL,50.0162,22.6778,63.81,95,40,4.23,scattered clouds
507,Aloleng,PH,16.1307,119.7824,82.45,83,100,19.06,overcast clouds
508,Inirida,CO,3.8653,-67.9239,73.62,89,99,3.74,overcast clouds
509,Roma,US,43.2128,-75.4557,73.26,50,75,6.91,broken clouds
510,Pau Brasil,BR,-15.4642,-39.6511,64.45,82,100,3.51,overcast clouds
511,Maryborough,AU,-25.5333,152.7,62.11,81,3,5.48,clear sky
512,Steamboat Springs,US,40.485,-106.8317,75.87,72,90,4.61,overcast clouds
513,Chabahar,IR,25.2919,60.643,83.93,83,14,9.6,few clouds
514,Fortuna,US,40.5982,-124.1573,70.86,76,1,18.41,clear sky
515,Komsomolskiy,UZ,40.4272,71.7189,79.52,41,58,4.61,broken clouds
516,Asfi,MA,32.2994,-9.2372,67.44,75,0,23.4,clear sky
517,Amontada,BR,-3.3617,-39.8317,78.67,63,67,8.84,broken clouds
518,Antofagasta,CL,-23.65,-70.4,58.28,79,32,7.54,scattered clouds
519,Narsaq,GL,60.9167,-46.05,59.22,77,44,3.49,scattered clouds
520,Kisangani,CD,0.5167,25.2,73.51,82,100,3.69,light rain
521,Puerto Del Rosario,ES,28.5004,-13.8627,73.15,73,20,19.57,few clouds
522,Bandarbeyla,SO,9.4942,50.8122,75.54,83,99,24.85,overcast clouds
523,Aquiraz,BR,-3.9014,-38.3911,81.18,84,37,10.49,scattered clouds
524,Qasigiannguit,GL,68.8193,-51.1922,46.56,69,17,3.29,few clouds
525,Benidorm,ES,38.5382,-0.131,86.0,49,37,9.66,scattered clouds
526,Daru,PG,-9.0763,143.2092,76.5,88,100,16.6,overcast clouds
527,Zeya,RU,53.75,127.2667,52.18,83,100,5.95,light rain
528,Reconquista,AR,-29.15,-59.65,58.03,41,2,4.14,clear sky
529,Zhigansk,RU,66.7697,123.3711,69.17,44,12,7.56,few clouds
530,Uong Bi,VN,21.0333,106.7833,76.98,97,100,2.8,very heavy rain
531,Fort Nelson,CA,58.8053,-122.7002,85.59,37,20,2.3,few clouds
532,Atasu,KZ,48.6814,71.6433,71.6,29,5,4.83,clear sky
533,Paragominas,BR,-2.9667,-47.4833,76.44,76,18,3.78,few clouds
534,Abu Samrah,SY,35.3029,37.1841,79.61,49,0,8.21,clear sky
535,Oga,IT,46.4631,10.347,56.48,93,96,1.59,light rain
536,Chandler,US,33.3062,-111.8412,99.91,39,1,3.0,clear sky
537,Oktyabrskiy,RU,54.4815,53.471,65.16,84,18,6.29,few clouds
538,La Macarena,CO,2.1837,-73.7849,76.23,88,88,2.89,overcast clouds
539,Mozelos,PT,41.8677,-8.3978,62.22,93,85,3.53,overcast clouds
540,Gobo,JP,33.8833,135.15,82.38,81,12,5.7,few clouds
541,Sabinas,MX,27.85,-101.1167,100.87,27,5,11.12,clear sky
542,Birjand,IR,32.8663,59.2211,72.07,16,0,11.5,clear sky
543,Saquarema,BR,-22.92,-42.5103,69.94,76,77,7.52,broken clouds
544,Gao,ML,16.6362,1.637,92.32,40,30,14.12,scattered clouds
545,Skelleftea,SE,64.7507,20.9528,59.36,69,40,3.44,scattered clouds
546,Aripuana,BR,-9.1667,-60.6333,79.38,38,8,1.45,clear sky
547,Mwanza,TZ,-2.5167,32.9,69.85,83,0,16.11,clear sky
548,Bafq,IR,31.6128,55.4107,86.29,20,7,4.32,clear sky
549,Florianopolis,BR,-27.6146,-48.5012,58.23,75,75,3.44,broken clouds
550,Russell,US,32.3502,-85.1999,93.51,81,98,4.7,overcast clouds
551,Baghdad,IQ,33.3406,44.4009,96.71,21,0,9.22,clear sky
552,Balsta,SE,59.5671,17.5278,62.69,90,92,5.99,overcast clouds
553,Asadabad,IR,34.7824,48.1185,73.63,17,57,2.55,broken clouds
554,Bonavista,CA,48.6499,-53.1147,66.2,76,2,22.35,clear sky
555,Kaka,TM,37.3482,59.6143,80.04,14,0,6.71,clear sky
556,Arman,RU,59.7,150.1667,59.7,57,21,1.68,few clouds
557,Karpathos,GR,35.507,27.2132,83.25,59,0,15.57,clear sky
558,Ahuimanu,US,21.4447,-157.8378,87.51,59,75,12.66,broken clouds
559,Grindavik,IS,63.8424,-22.4338,57.15,100,90,12.66,mist
560,Iralaya,HN,15.0,-83.2333,86.09,78,100,13.18,overcast clouds
561,Ruangwa,TZ,-10.0667,38.9333,68.14,77,41,5.79,scattered clouds
562,Korla,CN,41.7597,86.1469,71.65,36,97,19.1,overcast clouds
563,Ilave,PE,-16.0833,-69.6667,52.7,35,37,4.99,scattered clouds
564,Wenling,CN,28.3669,121.36,78.91,93,71,4.83,broken clouds
565,Neryungri,RU,56.6709,124.6491,49.44,72,100,3.11,overcast clouds
566,Donskoye,RU,45.4552,41.9741,78.93,37,7,3.83,clear sky
567,Bonnyville,CA,54.2668,-110.735,88.92,18,0,2.77,clear sky
568,Rio Blanco,MX,18.8333,-97.15,73.62,79,95,7.85,overcast clouds
569,Karratha,AU,-20.7377,116.8463,59.95,49,1,9.33,clear sky
570,Staraya Russa,RU,57.9944,31.3608,58.5,95,9,6.51,clear sky
571,Avera,US,33.194,-82.5271,95.72,43,90,9.64,overcast clouds
572,Wawa,NG,9.9022,4.4192,74.61,90,93,5.19,overcast clouds
573,Tomatlan,MX,19.9333,-105.25,87.58,62,67,5.77,broken clouds
574,Nanyang,CN,32.9947,112.5328,78.06,90,1,5.86,light rain
575,Marsa Matruh,EG,31.3525,27.2453,80.8,89,0,12.66,clear sky
576,Reshetylivka,UA,49.565,34.0782,72.39,56,26,1.48,scattered clouds
577,Solnechnyy,RU,50.7214,136.6319,49.1,97,100,7.09,overcast clouds
578,Lewistown,US,40.5992,-77.5714,84.34,40,1,3.44,clear sky
579,Zhuanghe,CN,39.7008,122.9911,73.58,89,0,1.97,clear sky
580,Gumla,IN,23.05,84.55,71.96,98,100,10.67,overcast clouds
581,Lompoc,US,34.6391,-120.4579,95.02,68,20,18.41,few clouds
582,Livingston,GB,55.9029,-3.5226,58.3,90,75,6.91,broken clouds
583,Saint-Augustin,CA,51.226,-58.6502,54.84,90,100,18.19,overcast clouds
584,Elizabeth City,US,36.2946,-76.2511,85.01,76,40,16.11,scattered clouds
585,Mariental,NA,-24.6333,17.9667,54.5,30,0,10.98,clear sky
586,Manggar,ID,-2.8833,108.2667,81.05,74,71,10.78,broken clouds
587,Verkhnyaya Inta,RU,65.9811,60.3094,55.96,58,100,11.05,overcast clouds
588,Tezu,IN,27.9167,96.1667,76.03,99,98,2.33,overcast clouds
589,Verkhoyansk,RU,67.5447,133.385,67.33,35,49,8.5,scattered clouds
590,Haines Junction,CA,60.7522,-137.5108,76.95,36,8,4.61,clear sky
591,Klintsy,RU,52.7602,32.2393,67.03,76,98,6.73,overcast clouds
592,Sakakah,SA,29.9697,40.2064,89.17,11,0,7.29,clear sky
593,Banepa,NP,27.6298,85.5214,70.12,94,75,4.61,broken clouds
594,Tocopilla,CL,-22.092,-70.1979,64.54,71,31,8.95,scattered clouds
595,Porto Walter,BR,-8.2686,-72.7439,83.43,45,4,1.12,clear sky
596,Sabang,ID,5.8933,95.3214,82.85,75,100,23.22,overcast clouds
597,Najran,SA,17.4924,44.1277,84.85,47,76,7.78,broken clouds
598,Barao De Melgaco,BR,-16.1944,-55.9675,90.12,25,19,4.18,few clouds
599,Cabedelo,BR,-6.9811,-34.8339,77.67,83,4,17.29,clear sky
600,Bronnoysund,NO,65.4625,12.1997,51.8,71,75,13.8,broken clouds
601,Llangefni,GB,53.2556,-4.3106,60.58,91,75,9.22,mist
602,Cavalcante,BR,-13.7975,-47.4583,73.0,46,85,4.81,overcast clouds
603,Nhulunbuy,AU,-12.2333,136.7667,74.01,100,29,3.44,scattered clouds
604,Aleksandrov Gay,RU,50.147,48.5704,76.64,52,41,6.8,scattered clouds
605,Kichera,RU,55.9375,110.0997,56.44,84,43,1.34,scattered clouds
606,Bermejo,AR,-32.8833,-68.8,55.76,36,18,6.89,few clouds
607,Kastamonu,TR,41.5,33.6667,57.67,68,0,1.74,clear sky
608,Kruisfontein,ZA,-34.0033,24.7314,56.14,40,54,4.56,broken clouds
609,Mehamn,NO,71.0357,27.8492,47.93,94,100,3.65,overcast clouds
610,Bud,US,39.447,-86.1758,75.04,59,100,3.67,overcast clouds
611,Biak,ID,-0.9131,122.8766,75.04,87,23,6.35,few clouds
612,Tarauaca,BR,-8.1614,-70.7656,82.49,43,1,0.83,clear sky
613,Azul,AR,-36.777,-59.8585,46.74,62,0,5.06,clear sky
614,Abeche,TD,13.8292,20.8324,79.11,73,99,11.21,overcast clouds
615,Coquimbo,CL,-29.9533,-71.3436,53.33,82,20,9.22,few clouds
616,Picton,AU,-34.1833,150.6,63.84,77,1,2.55,clear sky
617,Kalabo,ZM,-14.97,22.6814,57.83,46,0,7.38,clear sky
618,Chekhov,RU,55.1431,37.4711,65.08,77,88,5.66,overcast clouds
619,Vao,NC,-22.6667,167.4833,66.7,59,0,21.23,clear sky
620,Boshan,CN,36.4833,117.8333,67.86,97,93,10.36,overcast clouds
621,Noyabrsk,RU,63.1994,75.4507,48.61,80,26,3.98,scattered clouds
622,Nikolayevka,RU,53.1257,47.2041,68.86,68,30,4.05,scattered clouds
623,Manzanillo,CU,20.3433,-77.1167,89.89,61,8,5.73,clear sky
624,Kavaratti,IN,10.5669,72.642,81.1,81,19,15.41,few clouds
625,Lakes Entrance,AU,-37.8811,147.981,46.18,91,100,7.94,overcast clouds
626,Belaya Gora,RU,68.5333,146.4167,42.03,70,100,23.09,overcast clouds
627,Sheopur,IN,25.6667,76.7,76.5,95,73,7.09,broken clouds
628,Aguimes,ES,27.9054,-15.4461,73.65,73,40,31.07,scattered clouds
629,Orbe,CH,46.725,6.5307,65.25,64,100,5.12,overcast clouds
630,Carahue,CL,-38.7,-73.1667,53.8,87,3,0.87,clear sky
631,Yokadouma,CM,3.5167,15.05,70.74,97,100,1.54,light rain
632,Kindu,CD,-2.95,25.95,77.59,35,98,4.16,overcast clouds
633,Tabuk,PH,17.4189,121.4443,76.06,85,100,2.44,overcast clouds
634,Cuamba,MZ,-14.8031,36.5372,60.64,87,10,5.66,clear sky
635,Pergine Valsugana,IT,46.065,11.238,72.37,86,90,8.01,fog
636,Kirensk,RU,57.7853,108.1119,56.44,68,4,4.32,clear sky
637,Grand Gaube,MU,-20.0064,57.6608,70.38,76,0,5.01,clear sky
638,Manta,EC,-0.95,-80.7333,80.38,69,20,10.36,few clouds
639,Duncan,US,34.5023,-97.9578,99.05,40,1,3.44,clear sky
640,Nargana,PA,9.4428,-78.5906,83.64,82,79,8.39,broken clouds
641,Buritizeiro,BR,-17.3511,-44.9622,71.67,49,32,5.48,scattered clouds
642,Haapiti,PF,-17.5667,-149.8667,82.13,57,90,9.98,overcast clouds
643,Vacaria,BR,-28.5122,-50.9339,43.68,76,39,5.99,scattered clouds
644,Itoman,JP,26.1247,127.6694,82.78,96,75,13.8,broken clouds
645,Palana,RU,59.1167,159.9667,47.48,63,93,9.95,overcast clouds
646,Kriel,ZA,-26.2739,29.2253,45.81,31,0,3.44,clear sky
647,Yerbogachen,RU,61.2767,108.0108,56.75,62,2,5.21,clear sky
648,Virginia Beach,US,36.8529,-75.978,82.42,76,90,11.5,overcast clouds
649,The Valley,AI,18.217,-63.0578,85.86,79,20,16.11,haze
650,Owatonna,US,44.0839,-93.226,84.7,51,44,1.99,scattered clouds
651,Bentiu,SS,9.2333,29.8333,71.73,96,100,3.62,overcast clouds
652,Derzhavinsk,KZ,51.1,66.3167,70.79,71,99,4.63,overcast clouds
653,Ahome,MX,25.9167,-109.1833,97.09,58,3,8.01,clear sky
654,Ranong,TH,9.9658,98.6348,79.79,86,100,13.33,overcast clouds
655,Ibra,OM,22.6906,58.5334,84.43,57,39,3.94,scattered clouds
656,Ipil,PH,7.75,122.5167,75.06,92,52,0.67,broken clouds
657,Bamako,ML,12.65,-8.0,73.81,100,75,2.3,thunderstorm with light rain
658,Alyangula,AU,-13.8483,136.4192,67.87,100,90,0.0,overcast clouds
659,Vila Franca Do Campo,PT,37.7167,-25.4333,73.81,90,49,5.14,scattered clouds
660,Del Rio,US,29.3627,-100.8968,103.23,34,1,8.05,clear sky
661,Lima,PE,-12.0432,-77.0282,63.9,79,90,9.22,overcast clouds
662,Morgan City,US,29.6994,-91.2068,84.99,94,75,4.61,thunderstorm with light rain
663,Oranjemund,NA,-28.55,16.4333,66.24,35,0,1.97,clear sky
664,Atherton,GB,53.5237,-2.4935,61.16,93,98,1.99,light rain
665,Tilichiki,RU,60.4667,166.1,53.69,44,25,4.09,scattered clouds
666,Eyl,SO,7.9803,49.8164,75.85,77,56,17.87,broken clouds
667,Port Hedland,AU,-20.3167,118.5667,57.25,62,2,8.05,clear sky
668,Boqueirao,BR,-7.5,-36.1333,76.55,81,20,10.92,few clouds
669,Necochea,AR,-38.5473,-58.7368,46.04,73,63,8.59,broken clouds
670,Scarborough,GB,54.2797,-0.4044,60.53,92,100,5.66,overcast clouds
671,Xiongyue,CN,40.1774,122.1228,73.89,88,24,2.68,light rain
672,Farafangana,MG,-22.8167,47.8333,64.4,75,2,0.98,clear sky
673,Lamar,US,33.6668,-95.5836,100.63,47,1,9.22,clear sky
674,Qarchi Gak,AF,37.04,66.7889,78.89,16,0,12.35,clear sky
675,North Bend,US,43.4065,-124.2243,79.25,86,90,14.97,overcast clouds
676,Kampot,KH,10.6167,104.1833,82.45,85,100,8.9,overcast clouds
677,Vila Do Maio,CV,15.1333,-23.2167,79.59,84,95,12.75,overcast clouds
678,Tahara,JP,34.6667,137.2667,82.24,84,100,6.73,light rain
679,Kaeo,NZ,-35.1,173.7833,57.33,80,7,8.59,clear sky
680,San Julian,MX,21.0167,-102.1667,81.19,61,81,0.04,broken clouds
